{
"type": "FeatureCollection",
"name": "15kn_json_point",
"crs": { "type": "name", "properties": { "name": "urn:ogc:def:crs:OGC:1.3:CRS84" } },
"features": [
{ "type": "Feature", "properties": { "code": 2011, "nom_commune_x": "Ambleny", "code_commune_INSEE": 2011, "code_postal": 2290, "latitude": 49.37626729, "longitude": 3.183346792, "nom_region": "Hauts-de-France", "Population municipale 2021": 1181 }, "geometry": { "type": "Point", "coordinates": [ 3.183346792, 49.37626729 ] } },
{ "type": "Feature", "properties": { "code": 2034, "nom_commune_x": "Audignicourt", "code_commune_INSEE": 2034, "code_postal": 2300, "latitude": 49.47771572, "longitude": 3.127185028, "nom_region": "Hauts-de-France", "Population municipale 2021": 116 }, "geometry": { "type": "Point", "coordinates": [ 3.127185028, 49.47771572 ] } },
{ "type": "Feature", "properties": { "code": 2071, "nom_commune_x": "Berny-Rivière", "code_commune_INSEE": 2071, "code_postal": 2290, "latitude": 49.41132889, "longitude": 3.149752727, "nom_region": "Hauts-de-France", "Population municipale 2021": 641 }, "geometry": { "type": "Point", "coordinates": [ 3.149752727, 49.41132889 ] } },
{ "type": "Feature", "properties": { "code": 2201, "nom_commune_x": "Cœuvres-et-Valsery", "code_commune_INSEE": 2201, "code_postal": 2600, "latitude": 49.32954322, "longitude": 3.152904535, "nom_region": "Hauts-de-France", "Population municipale 2021": 458 }, "geometry": { "type": "Point", "coordinates": [ 3.152904535, 49.32954322 ] } },
{ "type": "Feature", "properties": { "code": 2216, "nom_commune_x": "Corcy", "code_commune_INSEE": 2216, "code_postal": 2600, "latitude": 49.25498921, "longitude": 3.19724367, "nom_region": "Hauts-de-France", "Population municipale 2021": 304 }, "geometry": { "type": "Point", "coordinates": [ 3.19724367, 49.25498921 ] } },
{ "type": "Feature", "properties": { "code": 2232, "nom_commune_x": "Coyolles", "code_commune_INSEE": 2232, "code_postal": 2600, "latitude": 49.21330897, "longitude": 3.013061738, "nom_region": "Hauts-de-France", "Population municipale 2021": 365 }, "geometry": { "type": "Point", "coordinates": [ 3.013061738, 49.21330897 ] } },
{ "type": "Feature", "properties": { "code": 2254, "nom_commune_x": "Cutry", "code_commune_INSEE": 2254, "code_postal": 2600, "latitude": 49.34427539, "longitude": 3.191271695, "nom_region": "Hauts-de-France", "Population municipale 2021": 127 }, "geometry": { "type": "Point", "coordinates": [ 3.191271695, 49.34427539 ] } },
{ "type": "Feature", "properties": { "code": 2259, "nom_commune_x": "Dampleux", "code_commune_INSEE": 2259, "code_postal": 2600, "latitude": 49.24144077, "longitude": 3.144131288, "nom_region": "Hauts-de-France", "Population municipale 2021": 386 }, "geometry": { "type": "Point", "coordinates": [ 3.144131288, 49.24144077 ] } },
{ "type": "Feature", "properties": { "code": 2267, "nom_commune_x": "Dommiers", "code_commune_INSEE": 2267, "code_postal": 2600, "latitude": 49.32907315, "longitude": 3.216346869, "nom_region": "Hauts-de-France", "Population municipale 2021": 301 }, "geometry": { "type": "Point", "coordinates": [ 3.216346869, 49.32907315 ] } },
{ "type": "Feature", "properties": { "code": 2302, "nom_commune_x": "Faverolles", "code_commune_INSEE": 2302, "code_postal": 2600, "latitude": 49.22706478, "longitude": 3.178144815, "nom_region": "Hauts-de-France", "Population municipale 2021": 340 }, "geometry": { "type": "Point", "coordinates": [ 3.178144815, 49.22706478 ] } },
{ "type": "Feature", "properties": { "code": 2316, "nom_commune_x": "Fleury", "code_commune_INSEE": 2316, "code_postal": 2600, "latitude": 49.26528631, "longitude": 3.159470647, "nom_region": "Hauts-de-France", "Population municipale 2021": 125 }, "geometry": { "type": "Point", "coordinates": [ 3.159470647, 49.26528631 ] } },
{ "type": "Feature", "properties": { "code": 2326, "nom_commune_x": "Fontenoy", "code_commune_INSEE": 2326, "code_postal": 2290, "latitude": 49.40999994, "longitude": 3.194547587, "nom_region": "Hauts-de-France", "Population municipale 2021": 464 }, "geometry": { "type": "Point", "coordinates": [ 3.194547587, 49.40999994 ] } },
{ "type": "Feature", "properties": { "code": 2368, "nom_commune_x": "Haramont", "code_commune_INSEE": 2368, "code_postal": 2600, "latitude": 49.2872759, "longitude": 3.031489771, "nom_region": "Hauts-de-France", "Population municipale 2021": 560 }, "geometry": { "type": "Point", "coordinates": [ 3.031489771, 49.2872759 ] } },
{ "type": "Feature", "properties": { "code": 2410, "nom_commune_x": "Largny-sur-Automne", "code_commune_INSEE": 2410, "code_postal": 2600, "latitude": 49.26107484, "longitude": 3.054111231, "nom_region": "Hauts-de-France", "Population municipale 2021": 241 }, "geometry": { "type": "Point", "coordinates": [ 3.054111231, 49.26107484 ] } },
{ "type": "Feature", "properties": { "code": 2415, "nom_commune_x": "Laversine", "code_commune_INSEE": 2415, "code_postal": 2600, "latitude": 49.35287189, "longitude": 3.154596515, "nom_region": "Hauts-de-France", "Population municipale 2021": 157 }, "geometry": { "type": "Point", "coordinates": [ 3.154596515, 49.35287189 ] } },
{ "type": "Feature", "properties": { "code": 2438, "nom_commune_x": "Longpont", "code_commune_INSEE": 2438, "code_postal": 2600, "latitude": 49.28433624, "longitude": 3.220693606, "nom_region": "Hauts-de-France", "Population municipale 2021": 242 }, "geometry": { "type": "Point", "coordinates": [ 3.220693606, 49.28433624 ] } },
{ "type": "Feature", "properties": { "code": 2506, "nom_commune_x": "Montgobert", "code_commune_INSEE": 2506, "code_postal": 2600, "latitude": 49.28962664, "longitude": 3.174041291, "nom_region": "Hauts-de-France", "Population municipale 2021": 200 }, "geometry": { "type": "Point", "coordinates": [ 3.174041291, 49.28962664 ] } },
{ "type": "Feature", "properties": { "code": 2514, "nom_commune_x": "Montigny-Lengrain", "code_commune_INSEE": 2514, "code_postal": 2290, "latitude": 49.37269005, "longitude": 3.0992463, "nom_region": "Hauts-de-France", "Population municipale 2021": 695 }, "geometry": { "type": "Point", "coordinates": [ 3.0992463, 49.37269005 ] } },
{ "type": "Feature", "properties": { "code": 2527, "nom_commune_x": "Morsain", "code_commune_INSEE": 2527, "code_postal": 2290, "latitude": 49.46168076, "longitude": 3.191224056, "nom_region": "Hauts-de-France", "Population municipale 2021": 466 }, "geometry": { "type": "Point", "coordinates": [ 3.191224056, 49.46168076 ] } },
{ "type": "Feature", "properties": { "code": 2528, "nom_commune_x": "Mortefontaine", "code_commune_INSEE": 2528, "code_postal": 2600, "latitude": 49.33627682, "longitude": 3.080534795, "nom_region": "Hauts-de-France", "Population municipale 2021": 221 }, "geometry": { "type": "Point", "coordinates": [ 3.080534795, 49.33627682 ] } },
{ "type": "Feature", "properties": { "code": 60432, "nom_commune_x": "Mortefontaine", "code_commune_INSEE": 2528, "code_postal": 2600, "latitude": 49.33627682, "longitude": 3.080534795, "nom_region": "Hauts-de-France", "Population municipale 2021": 221 }, "geometry": { "type": "Point", "coordinates": [ 3.080534795, 49.33627682 ] } },
{ "type": "Feature", "properties": { "code": 2562, "nom_commune_x": "Nouvron-Vingré", "code_commune_INSEE": 2562, "code_postal": 2290, "latitude": 49.4333492, "longitude": 3.188031798, "nom_region": "Hauts-de-France", "Population municipale 2021": 201 }, "geometry": { "type": "Point", "coordinates": [ 3.188031798, 49.4333492 ] } },
{ "type": "Feature", "properties": { "code": 2568, "nom_commune_x": "Oigny-en-Valois", "code_commune_INSEE": 2568, "code_postal": 2600, "latitude": 49.2137238, "longitude": 3.130272862, "nom_region": "Hauts-de-France", "Population municipale 2021": 168 }, "geometry": { "type": "Point", "coordinates": [ 3.130272862, 49.2137238 ] } },
{ "type": "Feature", "properties": { "code": 2598, "nom_commune_x": "Pernant", "code_commune_INSEE": 2598, "code_postal": 2200, "latitude": 49.37565221, "longitude": 3.23031459, "nom_region": "Hauts-de-France", "Population municipale 2021": 681 }, "geometry": { "type": "Point", "coordinates": [ 3.23031459, 49.37565221 ] } },
{ "type": "Feature", "properties": { "code": 2628, "nom_commune_x": "Puiseux-en-Retz", "code_commune_INSEE": 2628, "code_postal": 2600, "latitude": 49.29258614, "longitude": 3.134488796, "nom_region": "Hauts-de-France", "Population municipale 2021": 215 }, "geometry": { "type": "Point", "coordinates": [ 3.134488796, 49.29258614 ] } },
{ "type": "Feature", "properties": { "code": 2643, "nom_commune_x": "Ressons-le-Long", "code_commune_INSEE": 2643, "code_postal": 2290, "latitude": 49.38817795, "longitude": 3.141175529, "nom_region": "Hauts-de-France", "Population municipale 2021": 784 }, "geometry": { "type": "Point", "coordinates": [ 3.141175529, 49.38817795 ] } },
{ "type": "Feature", "properties": { "code": 2644, "nom_commune_x": "Retheuil", "code_commune_INSEE": 2644, "code_postal": 2600, "latitude": 49.31890911, "longitude": 3.00378065, "nom_region": "Hauts-de-France", "Population municipale 2021": 335 }, "geometry": { "type": "Point", "coordinates": [ 3.00378065, 49.31890911 ] } },
{ "type": "Feature", "properties": { "code": 2667, "nom_commune_x": "Saconin-et-Breuil", "code_commune_INSEE": 2667, "code_postal": 2200, "latitude": 49.35069024, "longitude": 3.246721463, "nom_region": "Hauts-de-France", "Population municipale 2021": 197 }, "geometry": { "type": "Point", "coordinates": [ 3.246721463, 49.35069024 ] } },
{ "type": "Feature", "properties": { "code": 2672, "nom_commune_x": "Saint-Bandry", "code_commune_INSEE": 2672, "code_postal": 2290, "latitude": 49.36389949, "longitude": 3.149490098, "nom_region": "Hauts-de-France", "Population municipale 2021": 247 }, "geometry": { "type": "Point", "coordinates": [ 3.149490098, 49.36389949 ] } },
{ "type": "Feature", "properties": { "code": 2673, "nom_commune_x": "Saint-Christophe-à-Berry", "code_commune_INSEE": 2673, "code_postal": 2290, "latitude": 49.42904992, "longitude": 3.129494727, "nom_region": "Hauts-de-France", "Population municipale 2021": 442 }, "geometry": { "type": "Point", "coordinates": [ 3.129494727, 49.42904992 ] } },
{ "type": "Feature", "properties": { "code": 2687, "nom_commune_x": "Saint-Pierre-Aigle", "code_commune_INSEE": 2687, "code_postal": 2600, "latitude": 49.31216217, "longitude": 3.196026492, "nom_region": "Hauts-de-France", "Population municipale 2021": 336 }, "geometry": { "type": "Point", "coordinates": [ 3.196026492, 49.31216217 ] } },
{ "type": "Feature", "properties": { "code": 2729, "nom_commune_x": "Soucy", "code_commune_INSEE": 2729, "code_postal": 2600, "latitude": 49.32097502, "longitude": 3.123249091, "nom_region": "Hauts-de-France", "Population municipale 2021": 77 }, "geometry": { "type": "Point", "coordinates": [ 3.123249091, 49.32097502 ] } },
{ "type": "Feature", "properties": { "code": 2734, "nom_commune_x": "Taillefontaine", "code_commune_INSEE": 2734, "code_postal": 2600, "latitude": 49.30993281, "longitude": 3.049625391, "nom_region": "Hauts-de-France", "Population municipale 2021": 267 }, "geometry": { "type": "Point", "coordinates": [ 3.049625391, 49.30993281 ] } },
{ "type": "Feature", "properties": { "code": 2762, "nom_commune_x": "Vassens", "code_commune_INSEE": 2762, "code_postal": 2290, "latitude": 49.47546699, "longitude": 3.156407614, "nom_region": "Hauts-de-France", "Population municipale 2021": 160 }, "geometry": { "type": "Point", "coordinates": [ 3.156407614, 49.47546699 ] } },
{ "type": "Feature", "properties": { "code": 2795, "nom_commune_x": "Vic-sur-Aisne", "code_commune_INSEE": 2795, "code_postal": 2290, "latitude": 49.41074763, "longitude": 3.109125505, "nom_region": "Hauts-de-France", "Population municipale 2021": 1602 }, "geometry": { "type": "Point", "coordinates": [ 3.109125505, 49.41074763 ] } },
{ "type": "Feature", "properties": { "code": 2810, "nom_commune_x": "Villers-Cotterêts", "code_commune_INSEE": 2810, "code_postal": 2600, "latitude": 49.23920006, "longitude": 3.096121911, "nom_region": "Hauts-de-France", "Population municipale 2021": 10454 }, "geometry": { "type": "Point", "coordinates": [ 3.096121911, 49.23920006 ] } },
{ "type": "Feature", "properties": { "code": 2822, "nom_commune_x": "Vivières", "code_commune_INSEE": 2822, "code_postal": 2600, "latitude": 49.30518854, "longitude": 3.091960759, "nom_region": "Hauts-de-France", "Population municipale 2021": 403 }, "geometry": { "type": "Point", "coordinates": [ 3.091960759, 49.30518854 ] } },
{ "type": "Feature", "properties": { "code": 60541, "nom_commune_x": "Roberval", "code_commune_INSEE": 60541, "code_postal": 60410, "latitude": 49.29115842, "longitude": 2.684975539, "nom_region": "Hauts-de-France", "Population municipale 2021": 352 }, "geometry": { "type": "Point", "coordinates": [ 2.684975539, 49.29115842 ] } },
{ "type": "Feature", "properties": { "code": 60562, "nom_commune_x": "Sacy-le-Grand", "code_commune_INSEE": 60562, "code_postal": 60700, "latitude": 49.35675362, "longitude": 2.5549921, "nom_region": "Hauts-de-France", "Population municipale 2021": 1583 }, "geometry": { "type": "Point", "coordinates": [ 2.5549921, 49.35675362 ] } },
{ "type": "Feature", "properties": { "code": 60006, "nom_commune_x": "Ageux", "code_commune_INSEE": 60006, "code_postal": 60700, "latitude": 49.31830422, "longitude": 2.589018097, "nom_region": "Hauts-de-France", "Population municipale 2021": 1145 }, "geometry": { "type": "Point", "coordinates": [ 2.589018097, 49.31830422 ] } },
{ "type": "Feature", "properties": { "code": 60050, "nom_commune_x": "Bazicourt", "code_commune_INSEE": 60050, "code_postal": 60700, "latitude": 49.3431574, "longitude": 2.622995915, "nom_region": "Hauts-de-France", "Population municipale 2021": 352 }, "geometry": { "type": "Point", "coordinates": [ 2.622995915, 49.3431574 ] } },
{ "type": "Feature", "properties": { "code": 60056, "nom_commune_x": "Beaurepaire", "code_commune_INSEE": 60056, "code_postal": 60700, "latitude": 49.29168865, "longitude": 2.569512308, "nom_region": "Hauts-de-France", "Population municipale 2021": 65 }, "geometry": { "type": "Point", "coordinates": [ 2.569512308, 49.29168865 ] } },
{ "type": "Feature", "properties": { "code": 60102, "nom_commune_x": "Brenouille", "code_commune_INSEE": 60102, "code_postal": 60870, "latitude": 49.30689345, "longitude": 2.549963057, "nom_region": "Hauts-de-France", "Population municipale 2021": 2065 }, "geometry": { "type": "Point", "coordinates": [ 2.549963057, 49.30689345 ] } },
{ "type": "Feature", "properties": { "code": 60154, "nom_commune_x": "Cinqueux", "code_commune_INSEE": 60154, "code_postal": 60940, "latitude": 49.32435923, "longitude": 2.533542914, "nom_region": "Hauts-de-France", "Population municipale 2021": 1617 }, "geometry": { "type": "Point", "coordinates": [ 2.533542914, 49.32435923 ] } },
{ "type": "Feature", "properties": { "code": 60406, "nom_commune_x": "Monceaux", "code_commune_INSEE": 60406, "code_postal": 60940, "latitude": 49.32692087, "longitude": 2.566306993, "nom_region": "Hauts-de-France", "Population municipale 2021": 909 }, "geometry": { "type": "Point", "coordinates": [ 2.566306993, 49.32692087 ] } },
{ "type": "Feature", "properties": { "code": 60508, "nom_commune_x": "Pontpoint", "code_commune_INSEE": 60508, "code_postal": 60700, "latitude": 49.3004968, "longitude": 2.648478291, "nom_region": "Hauts-de-France", "Population municipale 2021": 3251 }, "geometry": { "type": "Point", "coordinates": [ 2.648478291, 49.3004968 ] } },
{ "type": "Feature", "properties": { "code": 60509, "nom_commune_x": "Pont-Sainte-Maxence", "code_commune_INSEE": 60509, "code_postal": 60700, "latitude": 49.30497117, "longitude": 2.607980856, "nom_region": "Hauts-de-France", "Population municipale 2021": 12291 }, "geometry": { "type": "Point", "coordinates": [ 2.607980856, 49.30497117 ] } },
{ "type": "Feature", "properties": { "code": 60536, "nom_commune_x": "Rhuis", "code_commune_INSEE": 60536, "code_postal": 60410, "latitude": 49.30447197, "longitude": 2.697872304, "nom_region": "Hauts-de-France", "Population municipale 2021": 130 }, "geometry": { "type": "Point", "coordinates": [ 2.697872304, 49.30447197 ] } },
{ "type": "Feature", "properties": { "code": 60563, "nom_commune_x": "Sacy-le-Petit", "code_commune_INSEE": 60563, "code_postal": 60190, "latitude": 49.36989493, "longitude": 2.627783006, "nom_region": "Hauts-de-France", "Population municipale 2021": 629 }, "geometry": { "type": "Point", "coordinates": [ 2.627783006, 49.36989493 ] } },
{ "type": "Feature", "properties": { "code": 60587, "nom_commune_x": "Saint-Martin-Longueau", "code_commune_INSEE": 60587, "code_postal": 60700, "latitude": 49.34747064, "longitude": 2.599964032, "nom_region": "Hauts-de-France", "Population municipale 2021": 1442 }, "geometry": { "type": "Point", "coordinates": [ 2.599964032, 49.34747064 ] } },
{ "type": "Feature", "properties": { "code": 60670, "nom_commune_x": "Verneuil-en-Halatte", "code_commune_INSEE": 60670, "code_postal": 60550, "latitude": 49.27299209, "longitude": 2.53462191, "nom_region": "Hauts-de-France", "Population municipale 2021": 4734 }, "geometry": { "type": "Point", "coordinates": [ 2.53462191, 49.27299209 ] } },
{ "type": "Feature", "properties": { "code": 60680, "nom_commune_x": "Villeneuve-sur-Verberie", "code_commune_INSEE": 60680, "code_postal": 60410, "latitude": 49.27513993, "longitude": 2.679898445, "nom_region": "Hauts-de-France", "Population municipale 2021": 700 }, "geometry": { "type": "Point", "coordinates": [ 2.679898445, 49.27513993 ] } },
{ "type": "Feature", "properties": { "code": 80027, "nom_commune_x": "Armancourt", "code_commune_INSEE": 60023, "code_postal": 60880, "latitude": 49.3708331, "longitude": 2.764009494, "nom_region": "Hauts-de-France", "Population municipale 2021": 535 }, "geometry": { "type": "Point", "coordinates": [ 2.764009494, 49.3708331 ] } },
{ "type": "Feature", "properties": { "code": 60023, "nom_commune_x": "Armancourt", "code_commune_INSEE": 60023, "code_postal": 60880, "latitude": 49.3708331, "longitude": 2.764009494, "nom_region": "Hauts-de-France", "Population municipale 2021": 535 }, "geometry": { "type": "Point", "coordinates": [ 2.764009494, 49.3708331 ] } },
{ "type": "Feature", "properties": { "code": 60506, "nom_commune_x": "Pont-l'Évêque", "code_commune_INSEE": 60506, "code_postal": 60400, "latitude": 49.56275506, "longitude": 2.986673271, "nom_region": "Hauts-de-France", "Population municipale 2021": 675 }, "geometry": { "type": "Point", "coordinates": [ 2.986673271, 49.56275506 ] } },
{ "type": "Feature", "properties": { "code": 60552, "nom_commune_x": "Rouville", "code_commune_INSEE": 60552, "code_postal": 60800, "latitude": 49.21010654, "longitude": 2.88059214, "nom_region": "Hauts-de-France", "Population municipale 2021": 246 }, "geometry": { "type": "Point", "coordinates": [ 2.88059214, 49.21010654 ] } },
{ "type": "Feature", "properties": { "code": 60415, "nom_commune_x": "Montépilloy", "code_commune_INSEE": 60415, "code_postal": 60810, "latitude": 49.21391856, "longitude": 2.709326769, "nom_region": "Hauts-de-France", "Population municipale 2021": 144 }, "geometry": { "type": "Point", "coordinates": [ 2.709326769, 49.21391856 ] } },
{ "type": "Feature", "properties": { "code": 60027, "nom_commune_x": "Auger-Saint-Vincent", "code_commune_INSEE": 60027, "code_postal": 60800, "latitude": 49.21249522, "longitude": 2.813195869, "nom_region": "Hauts-de-France", "Population municipale 2021": 526 }, "geometry": { "type": "Point", "coordinates": [ 2.813195869, 49.21249522 ] } },
{ "type": "Feature", "properties": { "code": 60045, "nom_commune_x": "Barbery", "code_commune_INSEE": 60045, "code_postal": 60810, "latitude": 49.22226849, "longitude": 2.673308609, "nom_region": "Hauts-de-France", "Population municipale 2021": 547 }, "geometry": { "type": "Point", "coordinates": [ 2.673308609, 49.22226849 ] } },
{ "type": "Feature", "properties": { "code": 60047, "nom_commune_x": "Baron", "code_commune_INSEE": 60047, "code_postal": 60300, "latitude": 49.17545229, "longitude": 2.73481439, "nom_region": "Hauts-de-France", "Population municipale 2021": 752 }, "geometry": { "type": "Point", "coordinates": [ 2.73481439, 49.17545229 ] } },
{ "type": "Feature", "properties": { "code": 60064, "nom_commune_x": "Berneuil-sur-Aisne", "code_commune_INSEE": 60064, "code_postal": 60350, "latitude": 49.42180757, "longitude": 3.000100787, "nom_region": "Hauts-de-France", "Population municipale 2021": 961 }, "geometry": { "type": "Point", "coordinates": [ 3.000100787, 49.42180757 ] } },
{ "type": "Feature", "properties": { "code": 60066, "nom_commune_x": "Béthancourt-en-Valois", "code_commune_INSEE": 60066, "code_postal": 60129, "latitude": 49.27923265, "longitude": 2.875660487, "nom_region": "Hauts-de-France", "Population municipale 2021": 198 }, "geometry": { "type": "Point", "coordinates": [ 2.875660487, 49.27923265 ] } },
{ "type": "Feature", "properties": { "code": 60067, "nom_commune_x": "Béthisy-Saint-Martin", "code_commune_INSEE": 60067, "code_postal": 60320, "latitude": 49.28757955, "longitude": 2.812008154, "nom_region": "Hauts-de-France", "Population municipale 2021": 989 }, "geometry": { "type": "Point", "coordinates": [ 2.812008154, 49.28757955 ] } },
{ "type": "Feature", "properties": { "code": 60068, "nom_commune_x": "Béthisy-Saint-Pierre", "code_commune_INSEE": 60068, "code_postal": 60320, "latitude": 49.30761858, "longitude": 2.80360802, "nom_region": "Hauts-de-France", "Population municipale 2021": 3135 }, "geometry": { "type": "Point", "coordinates": [ 2.80360802, 49.30761858 ] } },
{ "type": "Feature", "properties": { "code": 60078, "nom_commune_x": "Blincourt", "code_commune_INSEE": 60078, "code_postal": 60190, "latitude": 49.38480963, "longitude": 2.619368036, "nom_region": "Hauts-de-France", "Population municipale 2021": 119 }, "geometry": { "type": "Point", "coordinates": [ 2.619368036, 49.38480963 ] } },
{ "type": "Feature", "properties": { "code": 60087, "nom_commune_x": "Borest", "code_commune_INSEE": 60087, "code_postal": 60300, "latitude": 49.18861468, "longitude": 2.671972925, "nom_region": "Hauts-de-France", "Population municipale 2021": 344 }, "geometry": { "type": "Point", "coordinates": [ 2.671972925, 49.18861468 ] } },
{ "type": "Feature", "properties": { "code": 60099, "nom_commune_x": "Braisnes-sur-Aronde", "code_commune_INSEE": 60099, "code_postal": 60113, "latitude": 49.47610424, "longitude": 2.774027608, "nom_region": "Hauts-de-France", "Population municipale 2021": 175 }, "geometry": { "type": "Point", "coordinates": [ 2.774027608, 49.47610424 ] } },
{ "type": "Feature", "properties": { "code": 60100, "nom_commune_x": "Brasseuse", "code_commune_INSEE": 60100, "code_postal": 60810, "latitude": 49.25188068, "longitude": 2.678774027, "nom_region": "Hauts-de-France", "Population municipale 2021": 113 }, "geometry": { "type": "Point", "coordinates": [ 2.678774027, 49.25188068 ] } },
{ "type": "Feature", "properties": { "code": 60138, "nom_commune_x": "Chamant", "code_commune_INSEE": 60138, "code_postal": 60300, "latitude": 49.22582104, "longitude": 2.619187649, "nom_region": "Hauts-de-France", "Population municipale 2021": 1031 }, "geometry": { "type": "Point", "coordinates": [ 2.619187649, 49.22582104 ] } },
{ "type": "Feature", "properties": { "code": 60151, "nom_commune_x": "Choisy-au-Bac", "code_commune_INSEE": 60151, "code_postal": 60750, "latitude": 49.44208983, "longitude": 2.895672703, "nom_region": "Hauts-de-France", "Population municipale 2021": 3322 }, "geometry": { "type": "Point", "coordinates": [ 2.895672703, 49.44208983 ] } },
{ "type": "Feature", "properties": { "code": 60166, "nom_commune_x": "Coudun", "code_commune_INSEE": 60166, "code_postal": 60150, "latitude": 49.45817843, "longitude": 2.800011302, "nom_region": "Hauts-de-France", "Population municipale 2021": 1059 }, "geometry": { "type": "Point", "coordinates": [ 2.800011302, 49.45817843 ] } },
{ "type": "Feature", "properties": { "code": 60176, "nom_commune_x": "Crépy-en-Valois", "code_commune_INSEE": 60176, "code_postal": 60800, "latitude": 49.23601309, "longitude": 2.896931821, "nom_region": "Hauts-de-France", "Population municipale 2021": 14217 }, "geometry": { "type": "Point", "coordinates": [ 2.896931821, 49.23601309 ] } },
{ "type": "Feature", "properties": { "code": 60203, "nom_commune_x": "Duvy", "code_commune_INSEE": 60203, "code_postal": 60800, "latitude": 49.23227417, "longitude": 2.84879454, "nom_region": "Hauts-de-France", "Population municipale 2021": 424 }, "geometry": { "type": "Point", "coordinates": [ 2.84879454, 49.23227417 ] } },
{ "type": "Feature", "properties": { "code": 60227, "nom_commune_x": "Évricourt", "code_commune_INSEE": 60227, "code_postal": 60310, "latitude": 49.57040167, "longitude": 2.916276483, "nom_region": "Hauts-de-France", "Population municipale 2021": 224 }, "geometry": { "type": "Point", "coordinates": [ 2.916276483, 49.57040167 ] } },
{ "type": "Feature", "properties": { "code": 60231, "nom_commune_x": "Feigneux", "code_commune_INSEE": 60231, "code_postal": 60800, "latitude": 49.26098185, "longitude": 2.914590373, "nom_region": "Hauts-de-France", "Population municipale 2021": 436 }, "geometry": { "type": "Point", "coordinates": [ 2.914590373, 49.26098185 ] } },
{ "type": "Feature", "properties": { "code": 60241, "nom_commune_x": "Fontaine-Chaalis", "code_commune_INSEE": 60241, "code_postal": 60300, "latitude": 49.15470738, "longitude": 2.660511259, "nom_region": "Hauts-de-France", "Population municipale 2021": 328 }, "geometry": { "type": "Point", "coordinates": [ 2.660511259, 49.15470738 ] } },
{ "type": "Feature", "properties": { "code": 60260, "nom_commune_x": "Fresnoy-la-Rivière", "code_commune_INSEE": 60260, "code_postal": 60127, "latitude": 49.27815224, "longitude": 2.927002275, "nom_region": "Hauts-de-France", "Population municipale 2021": 675 }, "geometry": { "type": "Point", "coordinates": [ 2.927002275, 49.27815224 ] } },
{ "type": "Feature", "properties": { "code": 60261, "nom_commune_x": "Fresnoy-le-Luat", "code_commune_INSEE": 60261, "code_postal": 60800, "latitude": 49.21270338, "longitude": 2.762830651, "nom_region": "Hauts-de-France", "Population municipale 2021": 542 }, "geometry": { "type": "Point", "coordinates": [ 2.762830651, 49.21270338 ] } },
{ "type": "Feature", "properties": { "code": 60274, "nom_commune_x": "Glaignes", "code_commune_INSEE": 60274, "code_postal": 60129, "latitude": 49.27306884, "longitude": 2.840051592, "nom_region": "Hauts-de-France", "Population municipale 2021": 371 }, "geometry": { "type": "Point", "coordinates": [ 2.840051592, 49.27306884 ] } },
{ "type": "Feature", "properties": { "code": 60279, "nom_commune_x": "Gondreville", "code_commune_INSEE": 60279, "code_postal": 60117, "latitude": 49.22014156, "longitude": 2.948648043, "nom_region": "Hauts-de-France", "Population municipale 2021": 200 }, "geometry": { "type": "Point", "coordinates": [ 2.948648043, 49.22014156 ] } },
{ "type": "Feature", "properties": { "code": 60281, "nom_commune_x": "Gournay-sur-Aronde", "code_commune_INSEE": 60281, "code_postal": 60190, "latitude": 49.50067978, "longitude": 2.691444888, "nom_region": "Hauts-de-France", "Population municipale 2021": 537 }, "geometry": { "type": "Point", "coordinates": [ 2.691444888, 49.50067978 ] } },
{ "type": "Feature", "properties": { "code": 60325, "nom_commune_x": "Jaux", "code_commune_INSEE": 60325, "code_postal": 60880, "latitude": 49.39590685, "longitude": 2.766787624, "nom_region": "Hauts-de-France", "Population municipale 2021": 2264 }, "geometry": { "type": "Point", "coordinates": [ 2.766787624, 49.39590685 ] } },
{ "type": "Feature", "properties": { "code": 60326, "nom_commune_x": "Jonquières", "code_commune_INSEE": 60326, "code_postal": 60680, "latitude": 49.39938432, "longitude": 2.734359954, "nom_region": "Hauts-de-France", "Population municipale 2021": 596 }, "geometry": { "type": "Point", "coordinates": [ 2.734359954, 49.39938432 ] } },
{ "type": "Feature", "properties": { "code": 60358, "nom_commune_x": "Lévignen", "code_commune_INSEE": 60358, "code_postal": 60800, "latitude": 49.19706979, "longitude": 2.915429607, "nom_region": "Hauts-de-France", "Population municipale 2021": 1013 }, "geometry": { "type": "Point", "coordinates": [ 2.915429607, 49.19706979 ] } },
{ "type": "Feature", "properties": { "code": 60378, "nom_commune_x": "Marest-sur-Matz", "code_commune_INSEE": 60378, "code_postal": 60490, "latitude": 49.5033268, "longitude": 2.824577647, "nom_region": "Hauts-de-France", "Population municipale 2021": 380 }, "geometry": { "type": "Point", "coordinates": [ 2.824577647, 49.5033268 ] } },
{ "type": "Feature", "properties": { "code": 60386, "nom_commune_x": "Marquéglise", "code_commune_INSEE": 60386, "code_postal": 60490, "latitude": 49.51588155, "longitude": 2.748413714, "nom_region": "Hauts-de-France", "Population municipale 2021": 478 }, "geometry": { "type": "Point", "coordinates": [ 2.748413714, 49.51588155 ] } },
{ "type": "Feature", "properties": { "code": 60392, "nom_commune_x": "Mélicocq", "code_commune_INSEE": 60392, "code_postal": 60150, "latitude": 49.48934418, "longitude": 2.850045845, "nom_region": "Hauts-de-France", "Population municipale 2021": 790 }, "geometry": { "type": "Point", "coordinates": [ 2.850045845, 49.48934418 ] } },
{ "type": "Feature", "properties": { "code": 60421, "nom_commune_x": "Mont-l'Évêque", "code_commune_INSEE": 60421, "code_postal": 60300, "latitude": 49.19042596, "longitude": 2.633926785, "nom_region": "Hauts-de-France", "Population municipale 2021": 395 }, "geometry": { "type": "Point", "coordinates": [ 2.633926785, 49.19042596 ] } },
{ "type": "Feature", "properties": { "code": 60423, "nom_commune_x": "Montmacq", "code_commune_INSEE": 60423, "code_postal": 60150, "latitude": 49.48181052, "longitude": 2.914921151, "nom_region": "Hauts-de-France", "Population municipale 2021": 1158 }, "geometry": { "type": "Point", "coordinates": [ 2.914921151, 49.48181052 ] } },
{ "type": "Feature", "properties": { "code": 60447, "nom_commune_x": "Néry", "code_commune_INSEE": 60447, "code_postal": 60320, "latitude": 49.27131007, "longitude": 2.771307143, "nom_region": "Hauts-de-France", "Population municipale 2021": 643 }, "geometry": { "type": "Point", "coordinates": [ 2.771307143, 49.27131007 ] } },
{ "type": "Feature", "properties": { "code": 60449, "nom_commune_x": "Neufvy-sur-Aronde", "code_commune_INSEE": 60449, "code_postal": 60190, "latitude": 49.50922352, "longitude": 2.653703981, "nom_region": "Hauts-de-France", "Population municipale 2021": 279 }, "geometry": { "type": "Point", "coordinates": [ 2.653703981, 49.50922352 ] } },
{ "type": "Feature", "properties": { "code": 60459, "nom_commune_x": "Neuville-sur-Ressons", "code_commune_INSEE": 60459, "code_postal": 60490, "latitude": 49.55149447, "longitude": 2.745138799, "nom_region": "Hauts-de-France", "Population municipale 2021": 205 }, "geometry": { "type": "Point", "coordinates": [ 2.745138799, 49.55149447 ] } },
{ "type": "Feature", "properties": { "code": 60478, "nom_commune_x": "Ormoy-le-Davien", "code_commune_INSEE": 60478, "code_postal": 60620, "latitude": 49.1960846, "longitude": 2.957912888, "nom_region": "Hauts-de-France", "Population municipale 2021": 367 }, "geometry": { "type": "Point", "coordinates": [ 2.957912888, 49.1960846 ] } },
{ "type": "Feature", "properties": { "code": 60479, "nom_commune_x": "Ormoy-Villers", "code_commune_INSEE": 60479, "code_postal": 60800, "latitude": 49.19722076, "longitude": 2.846905726, "nom_region": "Hauts-de-France", "Population municipale 2021": 744 }, "geometry": { "type": "Point", "coordinates": [ 2.846905726, 49.19722076 ] } },
{ "type": "Feature", "properties": { "code": 60491, "nom_commune_x": "Pierrefonds", "code_commune_INSEE": 60491, "code_postal": 60350, "latitude": 49.3480028, "longitude": 2.965759664, "nom_region": "Hauts-de-France", "Population municipale 2021": 1882 }, "geometry": { "type": "Point", "coordinates": [ 2.965759664, 49.3480028 ] } },
{ "type": "Feature", "properties": { "code": 60492, "nom_commune_x": "Pimprez", "code_commune_INSEE": 60492, "code_postal": 60170, "latitude": 49.51237333, "longitude": 2.951780551, "nom_region": "Hauts-de-France", "Population municipale 2021": 852 }, "geometry": { "type": "Point", "coordinates": [ 2.951780551, 49.51237333 ] } },
{ "type": "Feature", "properties": { "code": 60499, "nom_commune_x": "Plessis-de-Roye", "code_commune_INSEE": 60499, "code_postal": 60310, "latitude": 49.57158539, "longitude": 2.828491279, "nom_region": "Hauts-de-France", "Population municipale 2021": 234 }, "geometry": { "type": "Point", "coordinates": [ 2.828491279, 49.57158539 ] } },
{ "type": "Feature", "properties": { "code": 60525, "nom_commune_x": "Raray", "code_commune_INSEE": 60525, "code_postal": 60810, "latitude": 49.26344021, "longitude": 2.719690433, "nom_region": "Hauts-de-France", "Population municipale 2021": 122 }, "geometry": { "type": "Point", "coordinates": [ 2.719690433, 49.26344021 ] } },
{ "type": "Feature", "properties": { "code": 60534, "nom_commune_x": "Rethondes", "code_commune_INSEE": 60534, "code_postal": 60153, "latitude": 49.42899524, "longitude": 2.944602262, "nom_region": "Hauts-de-France", "Population municipale 2021": 643 }, "geometry": { "type": "Point", "coordinates": [ 2.944602262, 49.42899524 ] } },
{ "type": "Feature", "properties": { "code": 60537, "nom_commune_x": "Ribécourt-Dreslincourt", "code_commune_INSEE": 60537, "code_postal": 60170, "latitude": 49.52243438, "longitude": 2.918761796, "nom_region": "Hauts-de-France", "Population municipale 2021": 3746 }, "geometry": { "type": "Point", "coordinates": [ 2.918761796, 49.52243438 ] } },
{ "type": "Feature", "properties": { "code": 60543, "nom_commune_x": "Rocquemont", "code_commune_INSEE": 60543, "code_postal": 60800, "latitude": 49.2596362, "longitude": 2.819907845, "nom_region": "Hauts-de-France", "Population municipale 2021": 117 }, "geometry": { "type": "Point", "coordinates": [ 2.819907845, 49.2596362 ] } },
{ "type": "Feature", "properties": { "code": 60546, "nom_commune_x": "Rosières", "code_commune_INSEE": 60546, "code_postal": 60440, "latitude": 49.1865399, "longitude": 2.781014217, "nom_region": "Hauts-de-France", "Population municipale 2021": 141 }, "geometry": { "type": "Point", "coordinates": [ 2.781014217, 49.1865399 ] } },
{ "type": "Feature", "properties": { "code": 60553, "nom_commune_x": "Rouvillers", "code_commune_INSEE": 60553, "code_postal": 60190, "latitude": 49.45576115, "longitude": 2.629887754, "nom_region": "Hauts-de-France", "Population municipale 2021": 272 }, "geometry": { "type": "Point", "coordinates": [ 2.629887754, 49.45576115 ] } },
{ "type": "Feature", "properties": { "code": 60560, "nom_commune_x": "Rully", "code_commune_INSEE": 60560, "code_postal": 60810, "latitude": 49.23903993, "longitude": 2.724889978, "nom_region": "Hauts-de-France", "Population municipale 2021": 737 }, "geometry": { "type": "Point", "coordinates": [ 2.724889978, 49.23903993 ] } },
{ "type": "Feature", "properties": { "code": 60561, "nom_commune_x": "Russy-Bémont", "code_commune_INSEE": 60561, "code_postal": 60117, "latitude": 49.24976285, "longitude": 2.956378176, "nom_region": "Hauts-de-France", "Population municipale 2021": 226 }, "geometry": { "type": "Point", "coordinates": [ 2.956378176, 49.24976285 ] } },
{ "type": "Feature", "properties": { "code": 60569, "nom_commune_x": "Saint-Crépin-aux-Bois", "code_commune_INSEE": 60569, "code_postal": 60170, "latitude": 49.44479497, "longitude": 2.984880661, "nom_region": "Hauts-de-France", "Population municipale 2021": 174 }, "geometry": { "type": "Point", "coordinates": [ 2.984880661, 49.44479497 ] } },
{ "type": "Feature", "properties": { "code": 60579, "nom_commune_x": "Saint-Jean-aux-Bois", "code_commune_INSEE": 60579, "code_postal": 60350, "latitude": 49.35018268, "longitude": 2.887094094, "nom_region": "Hauts-de-France", "Population municipale 2021": 332 }, "geometry": { "type": "Point", "coordinates": [ 2.887094094, 49.35018268 ] } },
{ "type": "Feature", "properties": { "code": 60612, "nom_commune_x": "Senlis", "code_commune_INSEE": 60612, "code_postal": 60300, "latitude": 49.21184559, "longitude": 2.58570626, "nom_region": "Hauts-de-France", "Population municipale 2021": 15255 }, "geometry": { "type": "Point", "coordinates": [ 2.58570626, 49.21184559 ] } },
{ "type": "Feature", "properties": { "code": 60618, "nom_commune_x": "Séry-Magneval", "code_commune_INSEE": 60618, "code_postal": 60800, "latitude": 49.25848483, "longitude": 2.860286912, "nom_region": "Hauts-de-France", "Population municipale 2021": 276 }, "geometry": { "type": "Point", "coordinates": [ 2.860286912, 49.25848483 ] } },
{ "type": "Feature", "properties": { "code": 60636, "nom_commune_x": "Thourotte", "code_commune_INSEE": 60636, "code_postal": 60150, "latitude": 49.47933687, "longitude": 2.88124505, "nom_region": "Hauts-de-France", "Population municipale 2021": 4456 }, "geometry": { "type": "Point", "coordinates": [ 2.88124505, 49.47933687 ] } },
{ "type": "Feature", "properties": { "code": 60647, "nom_commune_x": "Trosly-Breuil", "code_commune_INSEE": 60647, "code_postal": 60350, "latitude": 49.39959377, "longitude": 2.965947796, "nom_region": "Hauts-de-France", "Population municipale 2021": 2035 }, "geometry": { "type": "Point", "coordinates": [ 2.965947796, 49.39959377 ] } },
{ "type": "Feature", "properties": { "code": 60650, "nom_commune_x": "Trumilly", "code_commune_INSEE": 60650, "code_postal": 60800, "latitude": 49.23962239, "longitude": 2.787124884, "nom_region": "Hauts-de-France", "Population municipale 2021": 521 }, "geometry": { "type": "Point", "coordinates": [ 2.787124884, 49.23962239 ] } },
{ "type": "Feature", "properties": { "code": 60682, "nom_commune_x": "Villers-Saint-Frambourg", "code_commune_INSEE": 60682, "code_postal": 60810, "latitude": 49.26072619, "longitude": 2.634657528, "nom_region": "Hauts-de-France", "Population municipale 2021": 719 }, "geometry": { "type": "Point", "coordinates": [ 2.634657528, 49.26072619 ] } },
{ "type": "Feature", "properties": { "code": 60689, "nom_commune_x": "Villers-sur-Coudun", "code_commune_INSEE": 60689, "code_postal": 60150, "latitude": 49.48633366, "longitude": 2.804741938, "nom_region": "Hauts-de-France", "Population municipale 2021": 1409 }, "geometry": { "type": "Point", "coordinates": [ 2.804741938, 49.48633366 ] } },
{ "type": "Feature", "properties": { "code": 60019, "nom_commune_x": "Antheuil-Portes", "code_commune_INSEE": 60019, "code_postal": 60162, "latitude": 49.5004605, "longitude": 2.733854309, "nom_region": "Hauts-de-France", "Population municipale 2021": 413 }, "geometry": { "type": "Point", "coordinates": [ 2.733854309, 49.5004605 ] } },
{ "type": "Feature", "properties": { "code": 60024, "nom_commune_x": "Arsy", "code_commune_INSEE": 60024, "code_postal": 60190, "latitude": 49.40560869, "longitude": 2.689584389, "nom_region": "Hauts-de-France", "Population municipale 2021": 801 }, "geometry": { "type": "Point", "coordinates": [ 2.689584389, 49.40560869 ] } },
{ "type": "Feature", "properties": { "code": 60036, "nom_commune_x": "Avrigny", "code_commune_INSEE": 60036, "code_postal": 60190, "latitude": 49.38907708, "longitude": 2.577027996, "nom_region": "Hauts-de-France", "Population municipale 2021": 391 }, "geometry": { "type": "Point", "coordinates": [ 2.577027996, 49.38907708 ] } },
{ "type": "Feature", "properties": { "code": 60040, "nom_commune_x": "Bailleul-le-Soc", "code_commune_INSEE": 60040, "code_postal": 60190, "latitude": 49.42062142, "longitude": 2.583763252, "nom_region": "Hauts-de-France", "Population municipale 2021": 644 }, "geometry": { "type": "Point", "coordinates": [ 2.583763252, 49.42062142 ] } },
{ "type": "Feature", "properties": { "code": 60043, "nom_commune_x": "Bailly", "code_commune_INSEE": 60043, "code_postal": 60170, "latitude": 49.49945612, "longitude": 2.982402584, "nom_region": "Hauts-de-France", "Population municipale 2021": 609 }, "geometry": { "type": "Point", "coordinates": [ 2.982402584, 49.49945612 ] } },
{ "type": "Feature", "properties": { "code": 60048, "nom_commune_x": "Baugy", "code_commune_INSEE": 60048, "code_postal": 60113, "latitude": 49.45592719, "longitude": 2.755175064, "nom_region": "Hauts-de-France", "Population municipale 2021": 282 }, "geometry": { "type": "Point", "coordinates": [ 2.755175064, 49.45592719 ] } },
{ "type": "Feature", "properties": { "code": 60048, "nom_commune_x": "Baugy", "code_commune_INSEE": 60048, "code_postal": 60190, "latitude": 49.45592719, "longitude": 2.755175064, "nom_region": "Hauts-de-France", "Population municipale 2021": 282 }, "geometry": { "type": "Point", "coordinates": [ 2.755175064, 49.45592719 ] } },
{ "type": "Feature", "properties": { "code": 60070, "nom_commune_x": "Bienville", "code_commune_INSEE": 60070, "code_postal": 60280, "latitude": 49.44779208, "longitude": 2.825140331, "nom_region": "Hauts-de-France", "Population municipale 2021": 453 }, "geometry": { "type": "Point", "coordinates": [ 2.825140331, 49.44779208 ] } },
{ "type": "Feature", "properties": { "code": 60083, "nom_commune_x": "Bonneuil-en-Valois", "code_commune_INSEE": 60083, "code_postal": 60123, "latitude": 49.2800249, "longitude": 2.981301037, "nom_region": "Hauts-de-France", "Population municipale 2021": 977 }, "geometry": { "type": "Point", "coordinates": [ 2.981301037, 49.2800249 ] } },
{ "type": "Feature", "properties": { "code": 60119, "nom_commune_x": "Cambronne-lès-Ribécourt", "code_commune_INSEE": 60119, "code_postal": 60170, "latitude": 49.50620921, "longitude": 2.898071345, "nom_region": "Hauts-de-France", "Population municipale 2021": 1898 }, "geometry": { "type": "Point", "coordinates": [ 2.898071345, 49.50620921 ] } },
{ "type": "Feature", "properties": { "code": 60125, "nom_commune_x": "Canly", "code_commune_INSEE": 60125, "code_postal": 60680, "latitude": 49.38908029, "longitude": 2.699659269, "nom_region": "Hauts-de-France", "Population municipale 2021": 746 }, "geometry": { "type": "Point", "coordinates": [ 2.699659269, 49.38908029 ] } },
{ "type": "Feature", "properties": { "code": 60126, "nom_commune_x": "Cannectancourt", "code_commune_INSEE": 60126, "code_postal": 60310, "latitude": 49.54836511, "longitude": 2.896222718, "nom_region": "Hauts-de-France", "Population municipale 2021": 515 }, "geometry": { "type": "Point", "coordinates": [ 2.896222718, 49.54836511 ] } },
{ "type": "Feature", "properties": { "code": 60129, "nom_commune_x": "Carlepont", "code_commune_INSEE": 60129, "code_postal": 60170, "latitude": 49.51915228, "longitude": 3.022340539, "nom_region": "Hauts-de-France", "Population municipale 2021": 1438 }, "geometry": { "type": "Point", "coordinates": [ 3.022340539, 49.51915228 ] } },
{ "type": "Feature", "properties": { "code": 60147, "nom_commune_x": "Chevincourt", "code_commune_INSEE": 60147, "code_postal": 60150, "latitude": 49.51676066, "longitude": 2.851230343, "nom_region": "Hauts-de-France", "Population municipale 2021": 779 }, "geometry": { "type": "Point", "coordinates": [ 2.851230343, 49.51676066 ] } },
{ "type": "Feature", "properties": { "code": 60149, "nom_commune_x": "Chevrières", "code_commune_INSEE": 60149, "code_postal": 60710, "latitude": 49.34610747, "longitude": 2.679681988, "nom_region": "Hauts-de-France", "Population municipale 2021": 2005 }, "geometry": { "type": "Point", "coordinates": [ 2.679681988, 49.34610747 ] } },
{ "type": "Feature", "properties": { "code": 60150, "nom_commune_x": "Chiry-Ourscamp", "code_commune_INSEE": 60150, "code_postal": 60138, "latitude": 49.53031428, "longitude": 2.971006688, "nom_region": "Hauts-de-France", "Population municipale 2021": 1143 }, "geometry": { "type": "Point", "coordinates": [ 2.971006688, 49.53031428 ] } },
{ "type": "Feature", "properties": { "code": 60152, "nom_commune_x": "Choisy-la-Victoire", "code_commune_INSEE": 60152, "code_postal": 60190, "latitude": 49.37759417, "longitude": 2.597268782, "nom_region": "Hauts-de-France", "Population municipale 2021": 243 }, "geometry": { "type": "Point", "coordinates": [ 2.597268782, 49.37759417 ] } },
{ "type": "Feature", "properties": { "code": 60156, "nom_commune_x": "Clairoix", "code_commune_INSEE": 60156, "code_postal": 60280, "latitude": 49.44129867, "longitude": 2.84539914, "nom_region": "Hauts-de-France", "Population municipale 2021": 2232 }, "geometry": { "type": "Point", "coordinates": [ 2.84539914, 49.44129867 ] } },
{ "type": "Feature", "properties": { "code": 60159, "nom_commune_x": "Compiègne", "code_commune_INSEE": 60159, "code_postal": 60200, "latitude": 49.39906015, "longitude": 2.853172494, "nom_region": "Hauts-de-France", "Population municipale 2021": 40394 }, "geometry": { "type": "Point", "coordinates": [ 2.853172494, 49.39906015 ] } },
{ "type": "Feature", "properties": { "code": 60188, "nom_commune_x": "Cuise-la-Motte", "code_commune_INSEE": 60188, "code_postal": 60350, "latitude": 49.38597027, "longitude": 2.999763025, "nom_region": "Hauts-de-France", "Population municipale 2021": 2161 }, "geometry": { "type": "Point", "coordinates": [ 2.999763025, 49.38597027 ] } },
{ "type": "Feature", "properties": { "code": 60206, "nom_commune_x": "Élincourt-Sainte-Marguerite", "code_commune_INSEE": 60206, "code_postal": 60157, "latitude": 49.53179017, "longitude": 2.828858306, "nom_region": "Hauts-de-France", "Population municipale 2021": 898 }, "geometry": { "type": "Point", "coordinates": [ 2.828858306, 49.53179017 ] } },
{ "type": "Feature", "properties": { "code": 60210, "nom_commune_x": "Épineuse", "code_commune_INSEE": 60210, "code_postal": 60190, "latitude": 49.40029299, "longitude": 2.550149148, "nom_region": "Hauts-de-France", "Population municipale 2021": 275 }, "geometry": { "type": "Point", "coordinates": [ 2.550149148, 49.40029299 ] } },
{ "type": "Feature", "properties": { "code": 60223, "nom_commune_x": "Estrées-Saint-Denis", "code_commune_INSEE": 60223, "code_postal": 60190, "latitude": 49.42634421, "longitude": 2.62953613, "nom_region": "Hauts-de-France", "Population municipale 2021": 3693 }, "geometry": { "type": "Point", "coordinates": [ 2.62953613, 49.42634421 ] } },
{ "type": "Feature", "properties": { "code": 60229, "nom_commune_x": "Fayel", "code_commune_INSEE": 60229, "code_postal": 60680, "latitude": 49.37229151, "longitude": 2.696917266, "nom_region": "Hauts-de-France", "Population municipale 2021": 232 }, "geometry": { "type": "Point", "coordinates": [ 2.696917266, 49.37229151 ] } },
{ "type": "Feature", "properties": { "code": 60238, "nom_commune_x": "Fleurines", "code_commune_INSEE": 60238, "code_postal": 60700, "latitude": 49.26233612, "longitude": 2.592583495, "nom_region": "Hauts-de-France", "Population municipale 2021": 1827 }, "geometry": { "type": "Point", "coordinates": [ 2.592583495, 49.26233612 ] } },
{ "type": "Feature", "properties": { "code": 60254, "nom_commune_x": "Francières", "code_commune_INSEE": 60254, "code_postal": 60190, "latitude": 49.44712561, "longitude": 2.667339239, "nom_region": "Hauts-de-France", "Population municipale 2021": 547 }, "geometry": { "type": "Point", "coordinates": [ 2.667339239, 49.44712561 ] } },
{ "type": "Feature", "properties": { "code": 60272, "nom_commune_x": "Gilocourt", "code_commune_INSEE": 60272, "code_postal": 60129, "latitude": 49.3007931, "longitude": 2.890264579, "nom_region": "Hauts-de-France", "Population municipale 2021": 634 }, "geometry": { "type": "Point", "coordinates": [ 2.890264579, 49.3007931 ] } },
{ "type": "Feature", "properties": { "code": 60273, "nom_commune_x": "Giraumont", "code_commune_INSEE": 60273, "code_postal": 60150, "latitude": 49.47370377, "longitude": 2.824767122, "nom_region": "Hauts-de-France", "Population municipale 2021": 527 }, "geometry": { "type": "Point", "coordinates": [ 2.824767122, 49.47370377 ] } },
{ "type": "Feature", "properties": { "code": 60284, "nom_commune_x": "Grandfresnoy", "code_commune_INSEE": 60284, "code_postal": 60680, "latitude": 49.37624882, "longitude": 2.659405436, "nom_region": "Hauts-de-France", "Population municipale 2021": 1802 }, "geometry": { "type": "Point", "coordinates": [ 2.659405436, 49.37624882 ] } },
{ "type": "Feature", "properties": { "code": 60285, "nom_commune_x": "Grandvillers-aux-Bois", "code_commune_INSEE": 60285, "code_postal": 60190, "latitude": 49.46416499, "longitude": 2.605525518, "nom_region": "Hauts-de-France", "Population municipale 2021": 302 }, "geometry": { "type": "Point", "coordinates": [ 2.605525518, 49.46416499 ] } },
{ "type": "Feature", "properties": { "code": 60292, "nom_commune_x": "Gury", "code_commune_INSEE": 60292, "code_postal": 60310, "latitude": 49.57034015, "longitude": 2.80143019, "nom_region": "Hauts-de-France", "Population municipale 2021": 234 }, "geometry": { "type": "Point", "coordinates": [ 2.80143019, 49.57034015 ] } },
{ "type": "Feature", "properties": { "code": 60308, "nom_commune_x": "Hémévillers", "code_commune_INSEE": 60308, "code_postal": 60190, "latitude": 49.47183674, "longitude": 2.672757977, "nom_region": "Hauts-de-France", "Population municipale 2021": 467 }, "geometry": { "type": "Point", "coordinates": [ 2.672757977, 49.47183674 ] } },
{ "type": "Feature", "properties": { "code": 60318, "nom_commune_x": "Houdancourt", "code_commune_INSEE": 60318, "code_postal": 60710, "latitude": 49.33753705, "longitude": 2.648023077, "nom_region": "Hauts-de-France", "Population municipale 2021": 662 }, "geometry": { "type": "Point", "coordinates": [ 2.648023077, 49.33753705 ] } },
{ "type": "Feature", "properties": { "code": 60320, "nom_commune_x": "Ivors", "code_commune_INSEE": 60320, "code_postal": 60141, "latitude": 49.20033148, "longitude": 3.018811119, "nom_region": "Hauts-de-France", "Population municipale 2021": 256 }, "geometry": { "type": "Point", "coordinates": [ 3.018811119, 49.20033148 ] } },
{ "type": "Feature", "properties": { "code": 60323, "nom_commune_x": "Janville", "code_commune_INSEE": 60323, "code_postal": 60150, "latitude": 49.45394623, "longitude": 2.858828918, "nom_region": "Hauts-de-France", "Population municipale 2021": 641 }, "geometry": { "type": "Point", "coordinates": [ 2.858828918, 49.45394623 ] } },
{ "type": "Feature", "properties": { "code": 60337, "nom_commune_x": "Lachelle", "code_commune_INSEE": 60337, "code_postal": 60190, "latitude": 49.43436804, "longitude": 2.746853182, "nom_region": "Hauts-de-France", "Population municipale 2021": 793 }, "geometry": { "type": "Point", "coordinates": [ 2.746853182, 49.43436804 ] } },
{ "type": "Feature", "properties": { "code": 60338, "nom_commune_x": "Lacroix-Saint-Ouen", "code_commune_INSEE": 60338, "code_postal": 60610, "latitude": 49.35505518, "longitude": 2.79513678, "nom_region": "Hauts-de-France", "Population municipale 2021": 4978 }, "geometry": { "type": "Point", "coordinates": [ 2.79513678, 49.35505518 ] } },
{ "type": "Feature", "properties": { "code": 60348, "nom_commune_x": "Larbroye", "code_commune_INSEE": 60348, "code_postal": 60400, "latitude": 49.57115457, "longitude": 2.960642909, "nom_region": "Hauts-de-France", "Population municipale 2021": 516 }, "geometry": { "type": "Point", "coordinates": [ 2.960642909, 49.57115457 ] } },
{ "type": "Feature", "properties": { "code": 60368, "nom_commune_x": "Longueil-Annel", "code_commune_INSEE": 60368, "code_postal": 60150, "latitude": 49.4667197, "longitude": 2.854236619, "nom_region": "Hauts-de-France", "Population municipale 2021": 2595 }, "geometry": { "type": "Point", "coordinates": [ 2.854236619, 49.4667197 ] } },
{ "type": "Feature", "properties": { "code": 60369, "nom_commune_x": "Longueil-Sainte-Marie", "code_commune_INSEE": 60369, "code_postal": 60126, "latitude": 49.34002196, "longitude": 2.711424712, "nom_region": "Hauts-de-France", "Population municipale 2021": 2010 }, "geometry": { "type": "Point", "coordinates": [ 2.711424712, 49.34002196 ] } },
{ "type": "Feature", "properties": { "code": 60373, "nom_commune_x": "Machemont", "code_commune_INSEE": 60373, "code_postal": 60150, "latitude": 49.50994419, "longitude": 2.875553005, "nom_region": "Hauts-de-France", "Population municipale 2021": 804 }, "geometry": { "type": "Point", "coordinates": [ 2.875553005, 49.50994419 ] } },
{ "type": "Feature", "properties": { "code": 60379, "nom_commune_x": "Mareuil-la-Motte", "code_commune_INSEE": 60379, "code_postal": 60490, "latitude": 49.54923952, "longitude": 2.797274711, "nom_region": "Hauts-de-France", "Population municipale 2021": 608 }, "geometry": { "type": "Point", "coordinates": [ 2.797274711, 49.54923952 ] } },
{ "type": "Feature", "properties": { "code": 60382, "nom_commune_x": "Margny-lès-Compiègne", "code_commune_INSEE": 60382, "code_postal": 60280, "latitude": 49.43299687, "longitude": 2.805486114, "nom_region": "Hauts-de-France", "Population municipale 2021": 8716 }, "geometry": { "type": "Point", "coordinates": [ 2.805486114, 49.43299687 ] } },
{ "type": "Feature", "properties": { "code": 60383, "nom_commune_x": "Margny-sur-Matz", "code_commune_INSEE": 60383, "code_postal": 60490, "latitude": 49.52931753, "longitude": 2.779152182, "nom_region": "Hauts-de-France", "Population municipale 2021": 536 }, "geometry": { "type": "Point", "coordinates": [ 2.779152182, 49.52931753 ] } },
{ "type": "Feature", "properties": { "code": 60402, "nom_commune_x": "Meux", "code_commune_INSEE": 60402, "code_postal": 60880, "latitude": 49.36752431, "longitude": 2.745179435, "nom_region": "Hauts-de-France", "Population municipale 2021": 2320 }, "geometry": { "type": "Point", "coordinates": [ 2.745179435, 49.36752431 ] } },
{ "type": "Feature", "properties": { "code": 60408, "nom_commune_x": "Monchy-Humières", "code_commune_INSEE": 60408, "code_postal": 60113, "latitude": 49.47680189, "longitude": 2.738318995, "nom_region": "Hauts-de-France", "Population municipale 2021": 780 }, "geometry": { "type": "Point", "coordinates": [ 2.738318995, 49.47680189 ] } },
{ "type": "Feature", "properties": { "code": 60424, "nom_commune_x": "Montmartin", "code_commune_INSEE": 60424, "code_postal": 60190, "latitude": 49.46626928, "longitude": 2.697505509, "nom_region": "Hauts-de-France", "Population municipale 2021": 281 }, "geometry": { "type": "Point", "coordinates": [ 2.697505509, 49.46626928 ] } },
{ "type": "Feature", "properties": { "code": 60430, "nom_commune_x": "Morienval", "code_commune_INSEE": 60430, "code_postal": 60127, "latitude": 49.31047097, "longitude": 2.930039689, "nom_region": "Hauts-de-France", "Population municipale 2021": 1076 }, "geometry": { "type": "Point", "coordinates": [ 2.930039689, 49.31047097 ] } },
{ "type": "Feature", "properties": { "code": 60440, "nom_commune_x": "Moyenneville", "code_commune_INSEE": 60440, "code_postal": 60190, "latitude": 49.48685589, "longitude": 2.633417289, "nom_region": "Hauts-de-France", "Population municipale 2021": 590 }, "geometry": { "type": "Point", "coordinates": [ 2.633417289, 49.48685589 ] } },
{ "type": "Feature", "properties": { "code": 60441, "nom_commune_x": "Moyvillers", "code_commune_INSEE": 60441, "code_postal": 60190, "latitude": 49.40717004, "longitude": 2.642884038, "nom_region": "Hauts-de-France", "Population municipale 2021": 686 }, "geometry": { "type": "Point", "coordinates": [ 2.642884038, 49.40717004 ] } },
{ "type": "Feature", "properties": { "code": 60481, "nom_commune_x": "Orrouy", "code_commune_INSEE": 60481, "code_postal": 60129, "latitude": 49.30712386, "longitude": 2.858092751, "nom_region": "Hauts-de-France", "Population municipale 2021": 602 }, "geometry": { "type": "Point", "coordinates": [ 2.858092751, 49.30712386 ] } },
{ "type": "Feature", "properties": { "code": 60488, "nom_commune_x": "Passel", "code_commune_INSEE": 60488, "code_postal": 60400, "latitude": 49.55623868, "longitude": 2.965702151, "nom_region": "Hauts-de-France", "Population municipale 2021": 270 }, "geometry": { "type": "Point", "coordinates": [ 2.965702151, 49.55623868 ] } },
{ "type": "Feature", "properties": { "code": 60501, "nom_commune_x": "Plessis-Brion", "code_commune_INSEE": 60501, "code_postal": 60150, "latitude": 49.46221962, "longitude": 2.908470464, "nom_region": "Hauts-de-France", "Population municipale 2021": 1316 }, "geometry": { "type": "Point", "coordinates": [ 2.908470464, 49.46221962 ] } },
{ "type": "Feature", "properties": { "code": 60531, "nom_commune_x": "Remy", "code_commune_INSEE": 60531, "code_postal": 60190, "latitude": 49.43468949, "longitude": 2.703127267, "nom_region": "Hauts-de-France", "Population municipale 2021": 1973 }, "geometry": { "type": "Point", "coordinates": [ 2.703127267, 49.43468949 ] } },
{ "type": "Feature", "properties": { "code": 60533, "nom_commune_x": "Ressons-sur-Matz", "code_commune_INSEE": 60533, "code_postal": 60490, "latitude": 49.53373048, "longitude": 2.732554387, "nom_region": "Hauts-de-France", "Population municipale 2021": 1733 }, "geometry": { "type": "Point", "coordinates": [ 2.732554387, 49.53373048 ] } },
{ "type": "Feature", "properties": { "code": 60540, "nom_commune_x": "Rivecourt", "code_commune_INSEE": 60540, "code_postal": 60126, "latitude": 49.34628157, "longitude": 2.738429092, "nom_region": "Hauts-de-France", "Population municipale 2021": 625 }, "geometry": { "type": "Point", "coordinates": [ 2.738429092, 49.34628157 ] } },
{ "type": "Feature", "properties": { "code": 60572, "nom_commune_x": "Saint-Étienne-Roilaye", "code_commune_INSEE": 60572, "code_postal": 60350, "latitude": 49.36049659, "longitude": 3.011213092, "nom_region": "Hauts-de-France", "Population municipale 2021": 284 }, "geometry": { "type": "Point", "coordinates": [ 3.011213092, 49.36049659 ] } },
{ "type": "Feature", "properties": { "code": 60578, "nom_commune_x": "Saintines", "code_commune_INSEE": 60578, "code_postal": 60410, "latitude": 49.3020445, "longitude": 2.76780195, "nom_region": "Hauts-de-France", "Population municipale 2021": 1064 }, "geometry": { "type": "Point", "coordinates": [ 2.76780195, 49.3020445 ] } },
{ "type": "Feature", "properties": { "code": 60582, "nom_commune_x": "Saint-Léger-aux-Bois", "code_commune_INSEE": 60582, "code_postal": 60170, "latitude": 49.47822764, "longitude": 2.952197473, "nom_region": "Hauts-de-France", "Population municipale 2021": 750 }, "geometry": { "type": "Point", "coordinates": [ 2.952197473, 49.47822764 ] } },
{ "type": "Feature", "properties": { "code": 60597, "nom_commune_x": "Saint-Sauveur", "code_commune_INSEE": 60597, "code_postal": 60320, "latitude": 49.32852048, "longitude": 2.806163738, "nom_region": "Hauts-de-France", "Population municipale 2021": 1743 }, "geometry": { "type": "Point", "coordinates": [ 2.806163738, 49.32852048 ] } },
{ "type": "Feature", "properties": { "code": 60600, "nom_commune_x": "Saint-Vaast-de-Longmont", "code_commune_INSEE": 60600, "code_postal": 60410, "latitude": 49.29647932, "longitude": 2.744653207, "nom_region": "Hauts-de-France", "Population municipale 2021": 640 }, "geometry": { "type": "Point", "coordinates": [ 2.744653207, 49.29647932 ] } },
{ "type": "Feature", "properties": { "code": 60610, "nom_commune_x": "Sempigny", "code_commune_INSEE": 60610, "code_postal": 60400, "latitude": 49.55268004, "longitude": 3.000547075, "nom_region": "Hauts-de-France", "Population municipale 2021": 760 }, "geometry": { "type": "Point", "coordinates": [ 3.000547075, 49.55268004 ] } },
{ "type": "Feature", "properties": { "code": 60632, "nom_commune_x": "Thiescourt", "code_commune_INSEE": 60632, "code_postal": 60310, "latitude": 49.55960265, "longitude": 2.866596557, "nom_region": "Hauts-de-France", "Population municipale 2021": 752 }, "geometry": { "type": "Point", "coordinates": [ 2.866596557, 49.55960265 ] } },
{ "type": "Feature", "properties": { "code": 60641, "nom_commune_x": "Tracy-le-Mont", "code_commune_INSEE": 60641, "code_postal": 60170, "latitude": 49.46904767, "longitude": 3.003679075, "nom_region": "Hauts-de-France", "Population municipale 2021": 1707 }, "geometry": { "type": "Point", "coordinates": [ 3.003679075, 49.46904767 ] } },
{ "type": "Feature", "properties": { "code": 60642, "nom_commune_x": "Tracy-le-Val", "code_commune_INSEE": 60642, "code_postal": 60170, "latitude": 49.49079735, "longitude": 3.013943764, "nom_region": "Hauts-de-France", "Population municipale 2021": 1053 }, "geometry": { "type": "Point", "coordinates": [ 3.013943764, 49.49079735 ] } },
{ "type": "Feature", "properties": { "code": 60654, "nom_commune_x": "Vandélicourt", "code_commune_INSEE": 60654, "code_postal": 60490, "latitude": 49.50830382, "longitude": 2.796668273, "nom_region": "Hauts-de-France", "Population municipale 2021": 260 }, "geometry": { "type": "Point", "coordinates": [ 2.796668273, 49.50830382 ] } },
{ "type": "Feature", "properties": { "code": 60658, "nom_commune_x": "Vauciennes", "code_commune_INSEE": 60658, "code_postal": 60117, "latitude": 49.2291352, "longitude": 3.01623561, "nom_region": "Hauts-de-France", "Population municipale 2021": 697 }, "geometry": { "type": "Point", "coordinates": [ 3.01623561, 49.2291352 ] } },
{ "type": "Feature", "properties": { "code": 60661, "nom_commune_x": "Vaumoise", "code_commune_INSEE": 60661, "code_postal": 60117, "latitude": 49.23990861, "longitude": 2.982302325, "nom_region": "Hauts-de-France", "Population municipale 2021": 993 }, "geometry": { "type": "Point", "coordinates": [ 2.982302325, 49.23990861 ] } },
{ "type": "Feature", "properties": { "code": 60665, "nom_commune_x": "Venette", "code_commune_INSEE": 60665, "code_postal": 60280, "latitude": 49.41954178, "longitude": 2.783739722, "nom_region": "Hauts-de-France", "Population municipale 2021": 2808 }, "geometry": { "type": "Point", "coordinates": [ 2.783739722, 49.41954178 ] } },
{ "type": "Feature", "properties": { "code": 60667, "nom_commune_x": "Verberie", "code_commune_INSEE": 60667, "code_postal": 60410, "latitude": 49.30576545, "longitude": 2.733025833, "nom_region": "Hauts-de-France", "Population municipale 2021": 3819 }, "geometry": { "type": "Point", "coordinates": [ 2.733025833, 49.30576545 ] } },
{ "type": "Feature", "properties": { "code": 60672, "nom_commune_x": "Vez", "code_commune_INSEE": 60672, "code_postal": 60117, "latitude": 49.25689661, "longitude": 3.008641892, "nom_region": "Hauts-de-France", "Population municipale 2021": 275 }, "geometry": { "type": "Point", "coordinates": [ 3.008641892, 49.25689661 ] } },
{ "type": "Feature", "properties": { "code": 60674, "nom_commune_x": "Vieux-Moulin", "code_commune_INSEE": 60674, "code_postal": 60350, "latitude": 49.38449251, "longitude": 2.925758392, "nom_region": "Hauts-de-France", "Population municipale 2021": 597 }, "geometry": { "type": "Point", "coordinates": [ 2.925758392, 49.38449251 ] } },
{ "type": "Feature", "properties": { "code": 60675, "nom_commune_x": "Vignemont", "code_commune_INSEE": 60675, "code_postal": 60162, "latitude": 49.49664666, "longitude": 2.776907168, "nom_region": "Hauts-de-France", "Population municipale 2021": 424 }, "geometry": { "type": "Point", "coordinates": [ 2.776907168, 49.49664666 ] } },
{ "type": "Feature", "properties": { "code": 60676, "nom_commune_x": "Ville", "code_commune_INSEE": 60676, "code_postal": 60400, "latitude": 49.55683316, "longitude": 2.933976413, "nom_region": "Hauts-de-France", "Population municipale 2021": 750 }, "geometry": { "type": "Point", "coordinates": [ 2.933976413, 49.55683316 ] } },
{ "type": "Feature", "properties": { "code": 60489, "nom_commune_x": "Péroy-les-Gombries", "code_commune_INSEE": 60489, "code_postal": 60440, "latitude": 49.16567495, "longitude": 2.843206315, "nom_region": "Hauts-de-France", "Population municipale 2021": 1203 }, "geometry": { "type": "Point", "coordinates": [ 2.843206315, 49.16567495 ] } },
{ "type": "Feature", "properties": { "code": 60046, "nom_commune_x": "Bargny", "code_commune_INSEE": 60046, "code_postal": 60620, "latitude": 49.17760385, "longitude": 2.958179322, "nom_region": "Hauts-de-France", "Population municipale 2021": 336 }, "geometry": { "type": "Point", "coordinates": [ 2.958179322, 49.17760385 ] } },
{ "type": "Feature", "properties": { "code": 60069, "nom_commune_x": "Betz", "code_commune_INSEE": 60069, "code_postal": 60620, "latitude": 49.15592416, "longitude": 2.942907156, "nom_region": "Hauts-de-France", "Population municipale 2021": 1121 }, "geometry": { "type": "Point", "coordinates": [ 2.942907156, 49.15592416 ] } },
{ "type": "Feature", "properties": { "code": 60079, "nom_commune_x": "Boissy-Fresnoy", "code_commune_INSEE": 60079, "code_postal": 60440, "latitude": 49.16596245, "longitude": 2.882262345, "nom_region": "Hauts-de-France", "Population municipale 2021": 968 }, "geometry": { "type": "Point", "coordinates": [ 2.882262345, 49.16596245 ] } },
{ "type": "Feature", "properties": { "code": 60190, "nom_commune_x": "Cuvergnon", "code_commune_INSEE": 60190, "code_postal": 60620, "latitude": 49.17400678, "longitude": 2.998077926, "nom_region": "Hauts-de-France", "Population municipale 2021": 304 }, "geometry": { "type": "Point", "coordinates": [ 2.998077926, 49.17400678 ] } },
{ "type": "Feature", "properties": { "code": 60671, "nom_commune_x": "Versigny", "code_commune_INSEE": 60671, "code_postal": 60440, "latitude": 49.16069516, "longitude": 2.783517581, "nom_region": "Hauts-de-France", "Population municipale 2021": 347 }, "geometry": { "type": "Point", "coordinates": [ 2.783517581, 49.16069516 ] } },
{ "type": "Feature", "properties": { "code": 2576, "nom_commune_x": "Osly-Courtil", "code_commune_INSEE": 2576, "code_postal": 2290, "latitude": 49.39953013, "longitude": 3.237365116, "nom_region": "Hauts-de-France", "Population municipale 2021": 325 }, "geometry": { "type": "Point", "coordinates": [ 3.237365116, 49.39953013 ] } },
{ "type": "Feature", "properties": { "code": 60025, "nom_commune_x": "Attichy", "code_commune_INSEE": 60025, "code_postal": 60350, "latitude": 49.42572692, "longitude": 3.044047027, "nom_region": "Hauts-de-France", "Population municipale 2021": 1853 }, "geometry": { "type": "Point", "coordinates": [ 3.044047027, 49.42572692 ] } },
{ "type": "Feature", "properties": { "code": 60032, "nom_commune_x": "Autrêches", "code_commune_INSEE": 60032, "code_postal": 60350, "latitude": 49.44919419, "longitude": 3.127225545, "nom_region": "Hauts-de-France", "Population municipale 2021": 713 }, "geometry": { "type": "Point", "coordinates": [ 3.127225545, 49.44919419 ] } },
{ "type": "Feature", "properties": { "code": 60072, "nom_commune_x": "Bitry", "code_commune_INSEE": 60072, "code_postal": 60350, "latitude": 49.4145786, "longitude": 3.078078035, "nom_region": "Hauts-de-France", "Population municipale 2021": 314 }, "geometry": { "type": "Point", "coordinates": [ 3.078078035, 49.4145786 ] } },
{ "type": "Feature", "properties": { "code": 60094, "nom_commune_x": "Boursonne", "code_commune_INSEE": 60094, "code_postal": 60141, "latitude": 49.19831513, "longitude": 3.046683037, "nom_region": "Hauts-de-France", "Population municipale 2021": 310 }, "geometry": { "type": "Point", "coordinates": [ 3.046683037, 49.19831513 ] } },
{ "type": "Feature", "properties": { "code": 60118, "nom_commune_x": "Caisnes", "code_commune_INSEE": 60118, "code_postal": 60400, "latitude": 49.52012136, "longitude": 3.064544865, "nom_region": "Hauts-de-France", "Population municipale 2021": 507 }, "geometry": { "type": "Point", "coordinates": [ 3.064544865, 49.52012136 ] } },
{ "type": "Feature", "properties": { "code": 60145, "nom_commune_x": "Chelles", "code_commune_INSEE": 60145, "code_postal": 60350, "latitude": 49.34666628, "longitude": 3.039517799, "nom_region": "Hauts-de-France", "Population municipale 2021": 473 }, "geometry": { "type": "Point", "coordinates": [ 3.039517799, 49.34666628 ] } },
{ "type": "Feature", "properties": { "code": 60167, "nom_commune_x": "Couloisy", "code_commune_INSEE": 60167, "code_postal": 60350, "latitude": 49.40053869, "longitude": 3.028376907, "nom_region": "Hauts-de-France", "Population municipale 2021": 592 }, "geometry": { "type": "Point", "coordinates": [ 3.028376907, 49.40053869 ] } },
{ "type": "Feature", "properties": { "code": 60171, "nom_commune_x": "Courtieux", "code_commune_INSEE": 60171, "code_postal": 60350, "latitude": 49.3852026, "longitude": 3.085101069, "nom_region": "Hauts-de-France", "Population municipale 2021": 177 }, "geometry": { "type": "Point", "coordinates": [ 3.085101069, 49.3852026 ] } },
{ "type": "Feature", "properties": { "code": 60184, "nom_commune_x": "Croutoy", "code_commune_INSEE": 60184, "code_postal": 60350, "latitude": 49.37721072, "longitude": 3.035758476, "nom_region": "Hauts-de-France", "Population municipale 2021": 205 }, "geometry": { "type": "Point", "coordinates": [ 3.035758476, 49.37721072 ] } },
{ "type": "Feature", "properties": { "code": 60207, "nom_commune_x": "Éméville", "code_commune_INSEE": 60207, "code_postal": 60123, "latitude": 49.2797702, "longitude": 3.024637288, "nom_region": "Hauts-de-France", "Population municipale 2021": 285 }, "geometry": { "type": "Point", "coordinates": [ 3.024637288, 49.2797702 ] } },
{ "type": "Feature", "properties": { "code": 60305, "nom_commune_x": "Hautefontaine", "code_commune_INSEE": 60305, "code_postal": 60350, "latitude": 49.36392882, "longitude": 3.062653638, "nom_region": "Hauts-de-France", "Population municipale 2021": 343 }, "geometry": { "type": "Point", "coordinates": [ 3.062653638, 49.36392882 ] } },
{ "type": "Feature", "properties": { "code": 60324, "nom_commune_x": "Jaulzy", "code_commune_INSEE": 60324, "code_postal": 60350, "latitude": 49.38812833, "longitude": 3.0594833, "nom_region": "Hauts-de-France", "Population municipale 2021": 864 }, "geometry": { "type": "Point", "coordinates": [ 3.0594833, 49.38812833 ] } },
{ "type": "Feature", "properties": { "code": 60438, "nom_commune_x": "Moulin-sous-Touvent", "code_commune_INSEE": 60438, "code_postal": 60350, "latitude": 49.46553132, "longitude": 3.066623787, "nom_region": "Hauts-de-France", "Population municipale 2021": 191 }, "geometry": { "type": "Point", "coordinates": [ 3.066623787, 49.46553132 ] } },
{ "type": "Feature", "properties": { "code": 60445, "nom_commune_x": "Nampcel", "code_commune_INSEE": 60445, "code_postal": 60400, "latitude": 49.49187645, "longitude": 3.090664717, "nom_region": "Hauts-de-France", "Population municipale 2021": 304 }, "geometry": { "type": "Point", "coordinates": [ 3.090664717, 49.49187645 ] } },
{ "type": "Feature", "properties": { "code": 60507, "nom_commune_x": "Pontoise-lès-Noyon", "code_commune_INSEE": 60507, "code_postal": 60400, "latitude": 49.54348483, "longitude": 3.047510726, "nom_region": "Hauts-de-France", "Population municipale 2021": 450 }, "geometry": { "type": "Point", "coordinates": [ 3.047510726, 49.54348483 ] } },
{ "type": "Feature", "properties": { "code": 60593, "nom_commune_x": "Saint-Pierre-lès-Bitry", "code_commune_INSEE": 60593, "code_postal": 60350, "latitude": 49.43145952, "longitude": 3.085073551, "nom_region": "Hauts-de-France", "Population municipale 2021": 141 }, "geometry": { "type": "Point", "coordinates": [ 3.085073551, 49.43145952 ] } }
]
}
